[{"id":"219533054725933","latitude":55.67930541456,"longitude":12.582954491272,"city":"København","country":"Denmark","name":"KØBENHAVN - Kopenhagen -","insideFence":true},{"id":"108459515844583","latitude":55.67877778,"longitude":12.57537222,"name":"Strøget","insideFence":true},{"id":"108003279227124","latitude":55.675367,"longitude":12.584533,"city":"København","country":"Denmark","name":"Børsen","insideFence":true},{"id":"129889340386464","latitude":55.680278,"longitude":12.585833,"city":"København","country":"Denmark","name":"Kongens Nytorv","insideFence":true},{"id":"181137468582725","latitude":55.68011,"longitude":12.57549,"city":"København","country":"Denmark","name":"Børn, Unge & Sorg","insideFence":true},{"id":"874523179261790","latitude":45.762295263214,"longitude":4.8556819617857,"city":"Lyon","country":"France","name":"Lego Store Lyon","insideFence":false},{"id":"18878857084","latitude":55.68133,"longitude":12.57577,"city":"København","country":"Denmark","name":"Rundetaarn","insideFence":true},{"id":"110343502319180","latitude":55.6761,"longitude":12.5683,"city":"Copenhagen","country":"Denmark","name":"Copenhagen, Denmark","insideFence":true},{"id":"107029382666893","latitude":55.675833333333,"longitude":12.578888888889,"city":"København","country":"Denmark","name":"Christiansborg Palace","insideFence":true},{"id":"110276419023488","latitude":55.685555555556,"longitude":12.577777777778,"city":"Copenhagen","country":"Denmark","name":"Rosenborg Castle","insideFence":true},{"id":"47703234827","latitude":55.68087,"longitude":12.57365,"city":"Copenhagen","country":"Denmark","name":"Københavns Hovedbibliotek","insideFence":true},{"id":"107714365986502","latitude":55.6867,"longitude":12.5638,"city":"København","country":"Denmark","name":"Dronning Louises Bro","insideFence":false},{"id":"189208031104527","latitude":55.67911,"longitude":12.5675899,"city":"København","country":"Denmark","name":"Kulturnatten","insideFence":true},{"id":"117320861689541","latitude":55.68384352593,"longitude":12.569657950459,"city":"København","country":"Denmark","name":"Torvehallerne KBH","insideFence":true},{"id":"151980038202813","latitude":55.68059,"longitude":12.5846699,"city":"Copenhagen","country":"Denmark","name":"Hotel d'Angleterre","insideFence":true},{"id":"90782814955","latitude":55.67932,"longitude":12.57387,"city":"København","country":"Denmark","name":"Ristorante Italiano","insideFence":true},{"id":"197674833589136","latitude":55.67606,"longitude":12.568826,"city":"Copenhagen","country":"Denmark","name":"City Hall Square, Copenhagen","insideFence":true},{"id":"1240796305940475","latitude":55.68163,"longitude":12.57096,"city":"Copenhagen","country":"Denmark","name":"BLÆST","insideFence":true},{"id":"115634401797120","latitude":55.6808281,"longitude":12.5803804,"name":"BT","insideFence":true},{"id":"174980412535287","latitude":55.679397860107,"longitude":12.585952912693,"city":"Copenhagen","country":"Denmark","name":"Det Kongelige Teater - Gamle Scene","insideFence":true},{"id":"133485170025293","latitude":55.675278,"longitude":12.570278,"name":"Copenhagen City Hall","insideFence":true},{"id":"713689748698903","latitude":55.67897432,"longitude":12.57998856,"city":"Copenhagen","country":"Denmark","name":"Caffe Norden","insideFence":true},{"id":"10778756137","latitude":55.679908779159,"longitude":12.572335921819,"city":"Copenhagen","country":"Denmark","name":"Københavns Universitet - University of Copenhagen","insideFence":true},{"id":"254724320876","latitude":55.67930241591,"longitude":12.584667205811,"city":"København","country":"Denmark","name":"Magasin du Nord","insideFence":true},{"id":"87468072466","latitude":55.67696,"longitude":12.57548,"city":"Copenhagen","country":"Denmark","name":"Copenhagen Pride (official)","insideFence":true},{"id":"138091489545958","latitude":55.67722222,"longitude":12.57305556,"city":"København","country":"Denmark","name":"Copenhagen Court House","insideFence":true},{"id":"124214190922941","latitude":55.683022036647,"longitude":12.573207873306,"city":"Copenhagen","country":"Denmark","name":"ICO Concerts","insideFence":true},{"id":"755154827990216","latitude":55.67565,"longitude":12.56672,"city":"København","country":"Denmark","name":"MU:ZE Club","insideFence":true},{"id":"118459892214401","latitude":55.67872,"longitude":12.58008,"city":"Copenhagen","country":"Denmark","name":"Lola Cph","insideFence":true},{"id":"164713220225410","latitude":55.68072,"longitude":12.58831,"city":"København","country":"Denmark","name":"Nyhavns Færgekro","insideFence":true},{"id":"208952725796165","latitude":55.6728516,"longitude":12.5786304,"city":"Copenhagen","country":"Denmark","name":"Copenhagen Fashion Week","insideFence":true},{"id":"264973933531728","latitude":55.67859,"longitude":12.57205,"city":"Copenhagen","country":"Denmark","name":"PENTHOUSE","insideFence":true},{"id":"63319095955","latitude":55.67912855416,"longitude":12.577525242611,"city":"Copenhagen","country":"Denmark","name":"DISTORTION","insideFence":true},{"id":"1003817229709884","latitude":55.68023,"longitude":12.58108,"city":"København","country":"Denmark","name":"The Market - Asian Kitchen & Bar","insideFence":true},{"id":"108857932468068","latitude":55.680325353702,"longitude":12.589041315388,"city":"Nyhavn","country":"Denmark","name":"Nyhavn, København, Denmark","insideFence":true},{"id":"135318820366179","latitude":55.679075571006,"longitude":12.574034929276,"city":"Copenhagen","country":"Denmark","name":"HeavenSpa Denmark","insideFence":true},{"id":"133621980011900","latitude":55.68083,"longitude":12.56639,"city":"København","country":"Denmark","name":"Ørstedsparken","insideFence":true},{"id":"8447813263","latitude":55.68118,"longitude":12.5763,"city":"Copenhagen","country":"Denmark","name":"Studenterhuset","insideFence":true},{"id":"311321422669029","latitude":55.67955,"longitude":12.57741,"city":"Copenhagen","country":"Denmark","name":"Gasoline Grill","insideFence":true},{"id":"1584373788488519","latitude":55.71032954,"longitude":12.52746964,"city":"København","country":"Denmark","name":"Kongens Enghave","insideFence":false},{"id":"122669691107329","latitude":55.678057578289,"longitude":12.569268905705,"city":"Copenhagen","country":"Denmark","name":"P3 - DR","insideFence":true},{"id":"202269979833637","latitude":55.6772,"longitude":12.57407,"city":"København","country":"Denmark","name":"Samadhi-Spa","insideFence":true},{"id":"37324072910","latitude":55.688524693401,"longitude":12.57839277234,"city":"København","country":"Denmark","name":"SMK - Statens Museum for Kunst","insideFence":true},{"id":"259958541509","latitude":55.6756706,"longitude":12.5675602,"city":"København","country":"Denmark","name":"Copenhagen Jazz Festival","insideFence":true},{"id":"704627896342816","latitude":55.67801,"longitude":12.5744399,"city":"Copenhagen","country":"Denmark","name":"Chateau Motel","insideFence":true},{"id":"151682331570325","latitude":55.67892,"longitude":12.57883,"city":"København","country":"Denmark","name":"Disney Store Copenhagen","insideFence":true},{"id":"1707310606157724","latitude":55.68103,"longitude":12.57264,"city":"København","country":"Denmark","name":"Dalle Valle","insideFence":true},{"id":"1408450449408848","latitude":55.67865,"longitude":12.5789,"city":"Copenhagen","country":"Denmark","name":"The Dubliner","insideFence":true},{"id":"203161089779997","latitude":55.683258379504,"longitude":12.568788528442,"city":"Copenhagen","country":"Denmark","name":"Copenhagen Cooking & Food Festival","insideFence":true},{"id":"36142437945","latitude":55.6793518,"longitude":12.5777102,"city":"Copenhagen","country":"Denmark","name":"JAZZHOUSE","insideFence":true},{"id":"110579276299557","latitude":55.67579,"longitude":12.56582,"city":"Copenhagen","country":"Denmark","name":"TRIO","insideFence":true},{"id":"185892508485136","latitude":55.67926,"longitude":12.58069,"city":"Copenhagen","country":"Denmark","name":"Eataly Copenhagen","insideFence":true},{"id":"219536074733226","latitude":55.67889,"longitude":12.57861,"city":"København","country":"Denmark","name":"Illums Bolighus","insideFence":true},{"id":"186876378066911","latitude":55.67703,"longitude":12.5757,"city":"Copenhagen","country":"Denmark","name":"Comedy ZOO","insideFence":true},{"id":"108311282527190","latitude":55.6875,"longitude":12.5794444444,"city":"København","country":"Denmark","name":"DSB","insideFence":true},{"id":"194814544261125","latitude":55.67734,"longitude":12.57571,"city":"Copenhagen","country":"Denmark","name":"Cafe Grabz","insideFence":true},{"id":"236559396812239","latitude":55.682175670829,"longitude":12.584787905216,"city":"Copenhagen","country":"Denmark","name":"Classic","insideFence":true},{"id":"269127110182129","latitude":55.67775,"longitude":12.5733599,"city":"Copenhagen","country":"Denmark","name":"MÄT Copenhagen","insideFence":true},{"id":"201557006528435","latitude":55.6792603,"longitude":12.5806904,"city":"Copenhagen","country":"Denmark","name":"ILLUM","insideFence":true},{"id":"50976170746","latitude":55.67868,"longitude":12.57427,"city":"København","country":"Denmark","name":"Unisport.dk","insideFence":true},{"id":"140862525974619","latitude":55.680625010625,"longitude":12.580435846625,"city":"København","country":"Denmark","name":"42Raw","insideFence":true},{"id":"201640113193991","latitude":55.682470477439,"longitude":12.580241345002,"city":"København","country":"Denmark","name":"Børsen","insideFence":true},{"id":"1080721202009422","latitude":55.67601,"longitude":12.56331,"city":"København","country":"Denmark","name":"Panama Club","insideFence":true},{"id":"185741612014","latitude":55.67774,"longitude":12.58104,"city":"Copenhagen","country":"Denmark","name":"Nordisk Ministerråd og Nordisk Råd","insideFence":true},{"id":"376060695861577","latitude":55.67692,"longitude":12.56842,"city":"København","country":"Denmark","name":"Politikens Forlag","insideFence":true},{"id":"674287022605890","latitude":55.67594,"longitude":12.57426,"city":"Copenhagen","country":"Denmark","name":"Copenhagen Downtown Hostel","insideFence":true},{"id":"676061179094769","latitude":55.683600122109,"longitude":12.574818134308,"city":"København","country":"Denmark","name":"Alternativet","insideFence":true},{"id":"272634629445114","latitude":55.67755,"longitude":12.57764,"city":"København","country":"Denmark","name":"Kunstforeningen GL STRAND","insideFence":true},{"id":"334436019941362","latitude":55.67904947951,"longitude":12.566439612134,"city":"København","country":"Denmark","name":"Lola Ramona","insideFence":true},{"id":"589356294573398","latitude":55.68163,"longitude":12.57096,"city":"Copenhagen","country":"Denmark","name":"ARCH","insideFence":true},{"id":"604665342928509","latitude":55.68006,"longitude":12.58137,"city":"København","country":"Denmark","name":"PS Bar & Grill","insideFence":true},{"id":"174940025873992","latitude":55.68065,"longitude":12.57889,"city":"Copenhagen","country":"Denmark","name":"A.C. Perchs Thehandel","insideFence":true},{"id":"257480614286065","latitude":55.67326,"longitude":12.58214,"city":"København","country":"Denmark","name":"Den Sorte Diamant - Det Kgl. Bibliotek","insideFence":true},{"id":"8172419783","latitude":55.68312,"longitude":12.57859,"city":"København","country":"Denmark","name":"Cinemateket","insideFence":true},{"id":"7055618693","latitude":55.68271,"longitude":12.57468,"city":"Copenhagen","country":"Denmark","name":"Complete Vocal Institute","insideFence":true},{"id":"127956667310792","latitude":55.67658,"longitude":12.56921,"city":"København","country":"Denmark","name":"7-Eleven Rådhuspladsen 47","insideFence":true},{"id":"199699810115067","latitude":55.6814531,"longitude":12.572275,"name":"Forbrugerrådet Tænk","insideFence":true},{"id":"626372090884478","latitude":55.68182,"longitude":12.58837,"city":"Copenhagen","country":"Denmark","name":"MASH","insideFence":true},{"id":"1578702828837359","latitude":55.6803,"longitude":12.56145,"city":"København","country":"Denmark","name":"Restaurant Flammen","insideFence":true},{"id":"751437384900595","latitude":55.678082265926,"longitude":12.569812627407,"city":"Copenhagen","country":"Denmark","name":"The Donut Shop","insideFence":true},{"id":"1368152486575313","latitude":55.67958,"longitude":12.58358,"city":"Copenhagen","country":"Denmark","name":"At Dolores","insideFence":true},{"id":"510033882354200","latitude":55.675977610154,"longitude":12.569151698154,"name":"KFC Danmark","insideFence":true},{"id":"104931383199612","latitude":55.6748199,"longitude":12.5847197,"city":"København","country":"Denmark","name":"Miljø- og Fødevareministeriet","insideFence":true},{"id":"120493358016788","latitude":55.67676,"longitude":12.57205,"city":"Copenhagen","country":"Denmark","name":"Centralhjørnet","insideFence":true},{"id":"189743007654","latitude":55.68096,"longitude":12.57818,"city":"København","country":"Denmark","name":"Gyldendal","insideFence":true},{"id":"488183977871744","latitude":55.67458,"longitude":12.5891,"city":"København","country":"Denmark","name":"Udenrigsministeriet Borgerservice","insideFence":false},{"id":"181058258611965","latitude":55.68146,"longitude":12.58062,"name":"Early Bird","insideFence":true},{"id":"334756557111","latitude":55.676625586556,"longitude":12.568478559001,"city":"Copenhagen","country":"Denmark","name":"Hard Rock Cafe Copenhagen","insideFence":true},{"id":"484844854962515","latitude":55.67641,"longitude":12.5747199,"city":"København","country":"Denmark","name":"Bastard Café - kaffe, øl og masser af brætspil","insideFence":true},{"id":"846764798671345","latitude":55.68133,"longitude":12.58499,"city":"København","country":"Denmark","name":"Bistro Royal","insideFence":true},{"id":"545184565583829","latitude":55.67641,"longitude":12.57472,"city":"Copenhagen","country":"Denmark","name":"Musikcaféen","insideFence":true},{"id":"544705715588581","latitude":55.67855,"longitude":12.58242,"city":"København","country":"Denmark","name":"Kirkens Korshær","insideFence":true},{"id":"255093471214608","latitude":55.68144,"longitude":12.571,"city":"Copenhagen","country":"Denmark","name":"Folketeatret","insideFence":true},{"id":"66971052034","latitude":55.68216,"longitude":12.5789,"city":"Copenhagen","country":"Denmark","name":"Hjerteforeningen","insideFence":true},{"id":"9822806858","latitude":55.671977186935,"longitude":12.578680262169,"city":"Copenhagen","country":"Denmark","name":"INDEX: Design to Improve Life","insideFence":true},{"id":"308787879229565","latitude":55.68336,"longitude":12.56616,"city":"Copenhagen","country":"Denmark","name":"Höst","insideFence":true},{"id":"33588644626","latitude":55.67856,"longitude":12.57684,"city":"Copenhagen","country":"Denmark","name":"World Animal Protection Danmark","insideFence":true},{"id":"261377963890954","latitude":55.67931,"longitude":12.56303,"city":"København","country":"Denmark","name":"Radio24syv","insideFence":true},{"id":"276145368333","latitude":55.6779213,"longitude":12.5770903,"city":"København","country":"Denmark","name":"BEDRE PSYKIATRI - Landsforeningen for pårørende","insideFence":true},{"id":"1112240828791445","latitude":55.68074,"longitude":12.58346,"city":"København","country":"Denmark","name":"The Private RooM","insideFence":true},{"id":"53683074436","latitude":55.673616396009,"longitude":12.56759073779,"city":"København","country":"Denmark","name":"Fredagsrock i Tivoli","insideFence":true},{"id":"447171052156852","latitude":55.681939769431,"longitude":12.585096359253,"city":"Copenhagen","country":"Denmark","name":"Shade","insideFence":true},{"id":"31324801518","latitude":55.67494,"longitude":12.56462,"city":"Copenhagen","country":"Denmark","name":"VisitCopenhagen","insideFence":true},{"id":"621167754615398","latitude":31.212842023936,"longitude":121.45345606503,"city":"Shanghai","country":"China","name":"The Tap House","insideFence":false},{"id":"238576729539939","latitude":55.67578,"longitude":12.5671,"city":"Copenhagen","country":"Denmark","name":"Rosie McGee's","insideFence":true},{"id":"202329553191","latitude":55.6781,"longitude":12.57329,"city":"København","country":"Denmark","name":"LGBT Danmark","insideFence":true},{"id":"219661911817268","latitude":55.68438,"longitude":12.57019,"city":"København","country":"Denmark","name":"GreenBurger FoodTruck","insideFence":true},{"id":"432886316857486","latitude":55.67963,"longitude":12.58382,"city":"København","country":"Denmark","name":"Llama Restaurant & Bar","insideFence":true},{"id":"141767742557343","latitude":55.67935,"longitude":12.57771,"city":"København","country":"Denmark","name":"Center For Women s Equality","insideFence":true},{"id":"336432669806085","latitude":55.681265969485,"longitude":12.586241775568,"city":"København","country":"Denmark","name":"Geist","insideFence":true},{"id":"116227401722605","latitude":55.6825,"longitude":12.5845,"city":"Copenhagen","country":"Denmark","name":"Dansk Flygtningehjælp","insideFence":true},{"id":"166032166871141","latitude":55.68351,"longitude":12.58524,"city":"Copenhagen","country":"Denmark","name":"Restaurant Pluto","insideFence":true},{"id":"127985503931566","latitude":55.68137,"longitude":12.58592,"city":"København","country":"Denmark","name":"Trattoria FIAT - Vinbar og restaurant","insideFence":true},{"id":"20303574131","latitude":55.67449,"longitude":12.57468,"city":"København","country":"Denmark","name":"Nationalmuseet","insideFence":true},{"id":"104294743274852","latitude":55.67989,"longitude":12.58365,"city":"København","country":"Denmark","name":"Mama Rosa","insideFence":true},{"id":"168794177991","latitude":55.674381846767,"longitude":12.562135147244,"city":"København","country":"Denmark","name":"EF Danmark - Sprogrejser og studier i udlandet","insideFence":false},{"id":"249846369582","latitude":55.6736,"longitude":12.566,"city":"København","country":"Denmark","name":"NIMB","insideFence":true},{"id":"560816180619496","latitude":55.68395,"longitude":12.5721399,"city":"København","country":"Denmark","name":"MentorDanmark","insideFence":true},{"id":"1278080712248110","latitude":55.67411,"longitude":12.56214,"city":"Copenhagen","country":"Denmark","name":"MADO Copenhagen","insideFence":false},{"id":"611866328824046","latitude":55.6775,"longitude":12.5746,"city":"København","country":"Denmark","name":"Socialpædagogerne","insideFence":true},{"id":"169872526382089","latitude":55.680630354951,"longitude":12.583270671591,"city":"Copenhagen","country":"Denmark","name":"Café Victor","insideFence":true},{"id":"205563946128613","latitude":55.67886,"longitude":12.5783799,"city":"Copenhagen","country":"Denmark","name":"Kinfolk","insideFence":true},{"id":"417739651628604","latitude":55.6766586,"longitude":12.56777,"city":"Copenhagen","country":"Denmark","name":"Copenhagen Free Walking Tours","insideFence":true},{"id":"22694021454","latitude":55.6779709,"longitude":12.5869999,"city":"København","country":"Denmark","name":"Det Kongelige Teater","insideFence":true},{"id":"1483225228593510","latitude":55.6793098,"longitude":12.5630302,"city":"København","country":"Denmark","name":"Radio24syv - Det, vi taler om","insideFence":true},{"id":"132117070182599","latitude":55.67921,"longitude":12.57514,"city":"København","country":"Denmark","name":"Biomega","insideFence":true},{"id":"5997062916","latitude":55.67786,"longitude":12.57909,"city":"Copenhagen","country":"Denmark","name":"Louis Poulsen Lighting","insideFence":true},{"id":"138743792864334","latitude":55.672753833393,"longitude":12.572281328733,"city":"Copenhagen","country":"Denmark","name":"Glyptoteket","insideFence":true},{"id":"344884799229","latitude":55.67491,"longitude":12.56377,"city":"Copenhagen","country":"Denmark","name":"Radisson Blu Royal Hotel, Copenhagen","insideFence":true},{"id":"597999776928700","latitude":55.6866112,"longitude":12.5861101,"city":"København","country":"Denmark","name":"Copenhagen Stylebar","insideFence":true},{"id":"142505945805875","latitude":55.68052,"longitude":12.58909,"city":"København","country":"Denmark","name":"Nyhavn 17","insideFence":true},{"id":"53104590355","latitude":55.67577,"longitude":12.57157,"city":"København","country":"Denmark","name":"Oscar Bar Café","insideFence":true},{"id":"488879261189615","latitude":55.675107867622,"longitude":12.565150848849,"city":"København","country":"Denmark","name":"Café Vivaldi","insideFence":true},{"id":"1530034107270796","latitude":55.67626,"longitude":12.57129,"city":"København","country":"Denmark","name":"Zoi Tattoo Cph","insideFence":true},{"id":"121327171384867","latitude":55.68233,"longitude":12.58506,"city":"Copenhagen","country":"Denmark","name":"High Voltage Copenhagen","insideFence":true},{"id":"163608693694254","latitude":55.67692,"longitude":12.56842,"city":"København","country":"Denmark","name":"SPOT","insideFence":true},{"id":"459329030902509","latitude":55.68674,"longitude":12.56171,"city":"København","country":"Denmark","name":"Kaffesalonen","insideFence":false},{"id":"642817079166722","latitude":55.67223,"longitude":12.56229,"city":"Copenhagen","country":"Denmark","name":"Urban House Copenhagen by MEININGER","insideFence":false},{"id":"1507997959501973","latitude":55.67565,"longitude":12.56411,"city":"København","country":"Denmark","name":"Landbrug & Fødevarer","insideFence":true},{"id":"120492961366837","latitude":55.677290861429,"longitude":12.564879665713,"city":"København","country":"Denmark","name":"Pumpehuset","insideFence":true},{"id":"366540630129233","latitude":55.68132,"longitude":12.58607,"city":"København","country":"Denmark","name":"Ravage","insideFence":true},{"id":"115372158619656","latitude":55.67864,"longitude":12.57813,"city":"København","country":"Denmark","name":"Mads Nørgaard","insideFence":true},{"id":"486398344763025","latitude":55.67974,"longitude":12.56278,"city":"Copenhagen","country":"Denmark","name":"International House Copenhagen","insideFence":true},{"id":"182547538438552","latitude":55.67449,"longitude":12.57468,"city":"København","country":"Denmark","name":"Nationalmuseet (aktiviteter, tilbud m.m.)","insideFence":true},{"id":"185312978152380","latitude":55.67424,"longitude":12.57312,"city":"København","country":"Denmark","name":"Rio Bravo","insideFence":true},{"id":"126543540781090","latitude":55.68209,"longitude":12.57082,"city":"København","country":"Denmark","name":"Ældre Sagen","insideFence":true},{"id":"133155886745898","latitude":55.674082178174,"longitude":12.56980191188,"city":"København","country":"Denmark","name":"Færgekroen Bryghus","insideFence":true},{"id":"183342165025684","latitude":55.67595,"longitude":12.56719,"city":"Copenhagen","country":"Denmark","name":"The Scottish Pub","insideFence":true},{"id":"197017029017","latitude":55.681094444405,"longitude":12.572857439518,"city":"København","country":"Denmark","name":"KILROY Denmark","insideFence":true},{"id":"8060919100","latitude":55.678654944759,"longitude":12.569848330701,"city":"Copenhagen","country":"Denmark","name":"Soundvenue","insideFence":true},{"id":"36664432940","latitude":55.67842,"longitude":12.57201,"city":"København","country":"Denmark","name":"Amnesty International Danmark","insideFence":true},{"id":"162013232283","latitude":55.67684,"longitude":12.56114,"city":"København","country":"Denmark","name":"Bremen Teater","insideFence":true},{"id":"174762626039626","latitude":55.67713,"longitude":12.56526,"city":"København","country":"Denmark","name":"Pumpehusets Byhave","insideFence":true},{"id":"217785478473","latitude":55.68184,"longitude":12.57091,"city":"København","country":"Denmark","name":"Superlove","insideFence":true},{"id":"116536901748584","latitude":55.67644,"longitude":12.56656,"city":"København","country":"Denmark","name":"Nordisk Film Biografer Dagmar","insideFence":true},{"id":"108966359122209","latitude":55.67886,"longitude":12.57224,"city":"Copenhagen","country":"Denmark","name":"Golden Days Festival","insideFence":true},{"id":"132344416862423","latitude":55.67826,"longitude":12.56309,"city":"København","country":"Denmark","name":"FOA","insideFence":true},{"id":"1699089530400219","latitude":55.67491,"longitude":12.56377,"city":"Copenhagen","country":"Denmark","name":"Café Royal Copenhagen","insideFence":true},{"id":"154924037892423","latitude":55.67883,"longitude":12.5757,"city":"København","country":"Denmark","name":"Neye","insideFence":true},{"id":"183595935013429","latitude":55.67593892728,"longitude":12.564926147461,"city":"Copenhagen","country":"Denmark","name":"Wallmans Cirkusbygningen","insideFence":true},{"id":"32416796716","latitude":55.68264,"longitude":12.57769,"city":"København","country":"Denmark","name":"Lindhardt og Ringhof","insideFence":true},{"id":"150966698288138","latitude":55.68639,"longitude":12.58405,"city":"Copenhagen","country":"Denmark","name":"Culture Box","insideFence":true},{"id":"141481689239433","latitude":55.67222,"longitude":12.56354,"city":"København","country":"Denmark","name":"Jernbanecafeen","insideFence":false},{"id":"141343589252160","latitude":55.67534,"longitude":12.56802,"city":"København","country":"Denmark","name":"Dansk Industri - DI","insideFence":true},{"id":"116488018390522","latitude":55.68076,"longitude":12.58817,"city":"København","country":"Denmark","name":"Canal Tours Copenhagen","insideFence":true},{"id":"108741202494014","latitude":55.67565,"longitude":12.56672,"city":"Copenhagen","country":"Denmark","name":"Old English Pub, Copenhagen","insideFence":true},{"id":"151014355042885","latitude":55.68248,"longitude":12.57742,"city":"Copenhagen","country":"Denmark","name":"Bering House of Flowers","insideFence":true},{"id":"620403047981021","latitude":55.6751531982,"longitude":12.566253884507,"city":"København","country":"Denmark","name":"MAD CPH","insideFence":true},{"id":"173118989397506","latitude":55.67465,"longitude":12.56565,"city":"Copenhagen","country":"Denmark","name":"A Hereford Beefstouw - Tivoli - København V","insideFence":true},{"id":"106808792711339","latitude":55.67394,"longitude":12.56056,"city":"København","country":"Denmark","name":"Take Offer","insideFence":false},{"id":"63566068360","latitude":55.683770412119,"longitude":12.58986,"city":"Copenhagen","country":"Denmark","name":"Study in Denmark","insideFence":true},{"id":"153847511332363","latitude":55.68114,"longitude":12.57132,"city":"København","country":"Denmark","name":"Herrernes Magasin by David K","insideFence":true},{"id":"228307370537367","latitude":55.68264,"longitude":12.57769,"city":"Copenhagen","country":"Denmark","name":"Egmont","insideFence":true},{"id":"835286829968305","latitude":55.67604,"longitude":12.57541,"city":"København","country":"Denmark","name":"Litteraturhuset","insideFence":true},{"id":"133740323348176","latitude":55.6782494,"longitude":12.58638,"city":"København","country":"Denmark","name":"3Shape","insideFence":true},{"id":"155790917804663","latitude":55.67187,"longitude":12.58829,"city":"Copenhagen","country":"Denmark","name":"SF Studios Danmark","insideFence":false},{"id":"108509592508543","latitude":55.6746101,"longitude":12.5762997,"city":"København","country":"Denmark","name":"Cosmo Laser & Skønhedsklinik","insideFence":true},{"id":"98926113231","latitude":55.679481509926,"longitude":12.581749567374,"city":"København","country":"Denmark","name":"Sand","insideFence":true},{"id":"200902533274743","latitude":55.655338026999,"longitude":12.591259862093,"name":"Nordea Danmark","insideFence":false},{"id":"51260151482","latitude":55.681268349973,"longitude":12.581555843353,"city":"Copenhagen","country":"Denmark","name":"IO Interactive","insideFence":true},{"id":"113006845445297","latitude":55.68118,"longitude":12.58665,"city":"Copenhagen","country":"Denmark","name":"European Environment Agency","insideFence":true},{"id":"862049590591113","latitude":55.67593,"longitude":12.57271,"city":"Copenhagen","country":"Denmark","name":"Lærerstandens Brandforsikring","insideFence":true},{"id":"133830370045460","latitude":55.67517,"longitude":12.5671199,"city":"København","country":"Denmark","name":"State of Green","insideFence":true},{"id":"133141330096780","latitude":55.679169333726,"longitude":12.597155570984,"city":"København","country":"Denmark","name":"FindersKeepers Copenhagen","insideFence":false},{"id":"225165640888160","latitude":55.67868,"longitude":12.56897,"city":"Kjobenhavn","country":"Denmark","name":"Project 4","insideFence":true},{"id":"109012749124622","latitude":55.67792,"longitude":12.56047,"city":"København","country":"Denmark","name":"3F - Danmarks Stærkeste Fagforening","insideFence":true},{"id":"167379836714379","latitude":55.6768417,"longitude":12.5611401,"city":"Copenhagen","country":"Denmark","name":"Hillsong Copenhagen","insideFence":true},{"id":"54021084118","latitude":55.67871,"longitude":12.57798,"city":"København","country":"Denmark","name":"CHANTI","insideFence":true},{"id":"493484314031350","latitude":55.675833333333,"longitude":12.569166666667,"city":"København","country":"Denmark","name":"City Hall Square","insideFence":true},{"id":"70729414688","latitude":55.68187,"longitude":12.57818,"name":"Trustpilot","insideFence":true},{"id":"51218588039","latitude":55.67905,"longitude":12.5674499,"city":"København","country":"Denmark","name":"Kino.dk","insideFence":true},{"id":"304554445813","latitude":55.67946,"longitude":12.56466,"city":"København","country":"Denmark","name":"Bolius","insideFence":true},{"id":"1669231106715809","latitude":55.67901,"longitude":12.57573,"city":"Copenhagen","country":"Denmark","name":"Naked","insideFence":true},{"id":"118585758189320","latitude":55.68259,"longitude":12.58141,"city":"Copenhagen","country":"Denmark","name":"Jane Kønig","insideFence":true},{"id":"741113972621888","latitude":55.68352,"longitude":12.57646,"city":"Copenhagen","country":"Denmark","name":"FiTNESS FOOD","insideFence":true},{"id":"162408904078","latitude":55.67592,"longitude":12.57361,"city":"København","country":"Denmark","name":"Danmarks Lærerforening","insideFence":true},{"id":"141226342563938","latitude":55.6825,"longitude":12.5845,"city":"Copenhagen","country":"Denmark","name":"Danish Refugee Council","insideFence":true},{"id":"140470112724724","latitude":55.67494,"longitude":12.56462,"city":"Copenhagen","country":"Denmark","name":"Equsana","insideFence":true},{"id":"228226417339215","latitude":55.67768,"longitude":12.57609,"city":"København","country":"Denmark","name":"Hypetrade","insideFence":true},{"id":"437898033055186","latitude":55.67869,"longitude":12.56732,"city":"København","country":"Denmark","name":"KarlsKicks","insideFence":true},{"id":"1819019605034626","latitude":55.67654,"longitude":12.58828,"city":"København","country":"Denmark","name":"Vejdirektoratet","insideFence":true},{"id":"120079242050437","latitude":55.67465,"longitude":12.56565,"city":"Copenhagen V, Denmark","name":"Vapiano Danmark","insideFence":true},{"id":"39233495912","latitude":55.67198,"longitude":12.57698,"city":"København","country":"Denmark","name":"Det Konservative Folkeparti","insideFence":true},{"id":"123316491057930","latitude":55.68091,"longitude":12.58762,"city":"Copenhagen","country":"Denmark","name":"House of Amber","insideFence":true},{"id":"144965885963","latitude":55.6756516,"longitude":12.56672,"city":"København","country":"Denmark","name":"Oxfam IBIS","insideFence":true},{"id":"276757269200305","latitude":55.67814,"longitude":12.56471,"city":"København","country":"Denmark","name":"Statens Kunstfond","insideFence":true},{"id":"1445157938907465","latitude":55.679266120814,"longitude":12.579431533813,"city":"Copenhagen","country":"Denmark","name":"Nordgreen","insideFence":true},{"id":"406175322785347","latitude":55.68264,"longitude":12.57769,"city":"København","country":"Denmark","name":"Alinea","insideFence":true},{"id":"441523039267786","latitude":55.68531,"longitude":12.58327,"city":"København","country":"Denmark","name":"Clinique Eden","insideFence":true},{"id":"12787473132","latitude":55.68083,"longitude":12.58038,"city":"København","country":"Denmark","name":"Berlingske","insideFence":true},{"id":"1612281458993913","latitude":55.6822014,"longitude":12.5798397,"city":"Copenhagen","country":"Denmark","name":"Børsen Opinion","insideFence":true},{"id":"535123729847544","latitude":55.68106,"longitude":12.5831199,"city":"Copenhagen","country":"Denmark","name":"AK Nygart","insideFence":true},{"id":"1471953159690087","latitude":55.68203,"longitude":12.58396,"city":"Copenhagen","country":"Denmark","name":"MT Performance","insideFence":true},{"id":"611753635559571","latitude":55.6831017,"longitude":12.5746403,"city":"Copenhagen","country":"Denmark","name":"Rokoko","insideFence":true},{"id":"510651868994245","latitude":55.67618084339,"longitude":12.561661595151,"city":"København","country":"Denmark","name":"Akademikernes A-kasse","insideFence":true},{"id":"215533038465146","latitude":55.6756554,"longitude":12.5665981,"city":"København","country":"Denmark","name":"Klarlund","insideFence":true},{"id":"316842975192098","latitude":55.6776,"longitude":12.57859,"city":"Copenhagen","country":"Denmark","name":"Happy Helper","insideFence":true},{"id":"183915618295703","latitude":55.68274,"longitude":12.57811,"city":"København","country":"Denmark","name":"Biografklub Danmark","insideFence":true},{"id":"323850207760936","latitude":55.67978,"longitude":12.58317,"city":"Copenhagen","country":"Denmark","name":"Trollbeads Concept Store Copenhagen","insideFence":true},{"id":"402246789834045","latitude":55.68264,"longitude":12.57769,"city":"København","country":"Denmark","name":"Forlaget Carlsen","insideFence":true},{"id":"161162093900838","latitude":55.67494,"longitude":12.56462,"city":"København","country":"Denmark","name":"Land & Fritid","insideFence":true},{"id":"425503407470358","latitude":55.67868,"longitude":12.57427,"city":"Copenhagen","country":"Denmark","name":"Unisportstore.com","insideFence":true},{"id":"1625228307806376","latitude":55.68363,"longitude":12.5745,"city":"Copenhagen","country":"Denmark","name":"Den Veganske Butik","insideFence":true},{"id":"463430700511013","latitude":55.6820297,"longitude":12.5797796,"city":"Copenhagen","country":"Denmark","name":"Salon sheillah","insideFence":true},{"id":"124370397772263","latitude":55.68804,"longitude":12.58845,"city":"København","country":"Denmark","name":"Bygningskultur Danmark / Historiske Huse","insideFence":true},{"id":"114595531906624","latitude":55.67935,"longitude":12.57771,"city":"København","country":"Denmark","name":"Dansk Kvindesamfund","insideFence":true},{"id":"134637526564378","latitude":55.674946763888,"longitude":12.564539909363,"city":"København","country":"Denmark","name":"Paradis is","insideFence":true},{"id":"114080867107","latitude":55.6735115,"longitude":12.5759697,"city":"Copenhagen","country":"Denmark","name":"SkillsDenmark","insideFence":true},{"id":"48544092860","latitude":55.67824,"longitude":12.57819,"city":"København","country":"Denmark","name":"Carré Danmark","insideFence":true},{"id":"220466928353766","latitude":55.673712550674,"longitude":12.571531757712,"city":"Copenhagen","country":"Denmark","name":"VR Karbala","insideFence":true},{"id":"289794870687","latitude":55.6815605,"longitude":12.5817099,"city":"Copenhagen","country":"Denmark","name":"DECADENT","insideFence":true},{"id":"230620516968753","latitude":55.67866,"longitude":12.58092,"city":"København","country":"Denmark","name":"EDU - universitetsstudier i udlandet","insideFence":true},{"id":"1534815566802962","latitude":55.6793098,"longitude":12.5630302,"city":"København","country":"Denmark","name":"Radio24syv - Den Korte Radioavis","insideFence":true},{"id":"463981880636875","latitude":55.676810074389,"longitude":12.560119628906,"city":"København","country":"Denmark","name":"RebeccaK.dk","insideFence":true},{"id":"495897290562507","latitude":55.6779213,"longitude":12.5604696,"city":"København","country":"Denmark","name":"Fagbladet 3F","insideFence":true},{"id":"162844580462943","latitude":51.497340740443,"longitude":-0.13516187667847,"city":"London","country":"United Kingdom","name":"Sunweb","insideFence":false},{"id":"284022275360744","latitude":55.67862,"longitude":12.57803,"city":"Copenhagen","country":"Denmark","name":"Loud Harmony","insideFence":true},{"id":"189180301268789","latitude":55.67933,"longitude":12.57467,"city":"Copenhagen","country":"Denmark","name":"MUNK collective","insideFence":true},{"id":"468304533330858","latitude":55.6728783,"longitude":12.57442,"city":"København","country":"Denmark","name":"Restaurant Flammen","insideFence":true},{"id":"590748571315512","latitude":55.67245,"longitude":12.57337,"city":"Copenhagen","country":"Denmark","name":"Restaurant Niels","insideFence":true},{"id":"127452603934473","latitude":55.67112,"longitude":12.57293,"city":"Copenhagen","country":"Denmark","name":"Børnefonden","insideFence":true},{"id":"173320249439435","latitude":55.67017,"longitude":12.57027,"city":"København","country":"Denmark","name":"Politi","insideFence":true},{"id":"103988597020","latitude":55.673496439481,"longitude":12.567777194517,"city":"København","country":"Denmark","name":"Tivoli","insideFence":true},{"id":"437410226312057","latitude":55.671091936667,"longitude":12.570083323333,"city":"København","country":"Denmark","name":"Københavns Kommune","insideFence":true},{"id":"183946958283138","latitude":55.668811731454,"longitude":12.574067115784,"city":"Copenhagen","country":"Denmark","name":"Copenhagen Marriott Hotel","insideFence":true},{"id":"45834144932","latitude":55.67105,"longitude":12.57656,"city":"Copenhagen","country":"Denmark","name":"Danhostel Copenhagen City","insideFence":true},{"id":"223690937691260","latitude":55.669719465,"longitude":12.5707038,"city":"København","country":"Denmark","name":"Falck Danmark","insideFence":true},{"id":"201408103735657","latitude":55.67449,"longitude":12.57468,"city":"København","country":"Denmark","name":"Freedom Speech & Concert","insideFence":true},{"id":"44741133186","latitude":55.673869875144,"longitude":12.576277256012,"city":"København","country":"Denmark","name":"Altinget.dk","insideFence":true},{"id":"106952222676974","latitude":55.67198,"longitude":12.57698,"city":"København","country":"Denmark","name":"Liberal Alliance","insideFence":true},{"id":"353374740320","latitude":55.673918275275,"longitude":12.576234340668,"city":"København","country":"Denmark","name":"Mandag Morgen","insideFence":true},{"id":"374467896093910","latitude":55.672876232752,"longitude":12.568542969399,"city":"København","country":"Denmark","name":"Salene i Tivoli","insideFence":true},{"id":"161728097222333","latitude":55.672571254365,"longitude":12.567839592295,"name":"Himmelskibet - Tivoli","insideFence":true},{"id":"880958325403586","latitude":55.673030937442,"longitude":12.568250814084,"city":"Copenhagen","country":"Denmark","name":"Koncertsalen i Tivoli","insideFence":true},{"id":"1271989642815748","latitude":55.672465336087,"longitude":12.567510707391,"city":"København","country":"Denmark","name":"Vaffelbageriet","insideFence":true},{"id":"218915394820283","latitude":51.5064316,"longitude":-0.12721,"name":"wagamama","insideFence":false},{"id":"127425024103228","latitude":55.672410709625,"longitude":12.567689450659,"city":"Copenhagen","country":"Denmark","name":"Restaurant Italia","insideFence":true},{"id":"135625579818371","latitude":55.67297778,"longitude":12.567,"city":"København","country":"Denmark","name":"Rutschebanen (Tivoli)","insideFence":true},{"id":"486844268080550","latitude":55.67279,"longitude":12.56685,"city":"København","country":"Denmark","name":"Jagthytten","insideFence":true},{"id":"254774127910336","latitude":59.31444,"longitude":18.0848799,"city":"Stockholm","country":"Sweden","name":"La Vecchia Signora","insideFence":false},{"id":"674531202659901","latitude":55.672905976333,"longitude":12.568374280333,"city":"København","country":"Denmark","name":"Dirty Dancing Tivolis Koncertsal","insideFence":true},{"id":"562675140514714","latitude":55.672780856383,"longitude":12.568552494049,"city":"København","country":"Denmark","name":"SommerKlassisk i Tivoli","insideFence":true},{"id":"1431483836973512","latitude":55.672372055555,"longitude":12.569012967645,"city":"Copenhagen","country":"Denmark","name":"Wagamama Danmark","insideFence":true},{"id":"832081646952847","latitude":55.672011995201,"longitude":12.567442393166,"city":"Copenhagen","country":"Denmark","name":"Det Hjemsøgte","insideFence":true},{"id":"374105619368870","latitude":55.672218385018,"longitude":12.567947148801,"city":"København","country":"Denmark","name":"Aquila, Tivoli","insideFence":true},{"id":"386304524768329","latitude":55.6725,"longitude":12.5678,"city":"København","country":"Denmark","name":"Star Flyer (Tivoli Gardens)","insideFence":true},{"id":"250702848762419","latitude":55.67198796105,"longitude":12.567419804035,"city":"Copenhagen","country":"Denmark","name":"Kombardoexpressen","insideFence":true},{"id":"126511457391896","latitude":54.964167,"longitude":12.552222,"city":"Stege","country":"Denmark","name":"Møns Klint","insideFence":false},{"id":"350489428341829","latitude":55.672275995955,"longitude":12.568207498818,"city":"København","country":"Denmark","name":"Rolling Stones Pinball @ Tivoli","insideFence":true},{"id":"1616002318619223","latitude":50.2713509,"longitude":19.02355,"city":"Tangerang","country":"Indonesia","name":"GALOP","insideFence":false},{"id":"382239018483257","latitude":55.67222611,"longitude":12.5669981,"city":"København","country":"Denmark","name":"DcDk","insideFence":true},{"id":"194071007297030","latitude":55.67236568989,"longitude":12.569051804033,"city":"København","country":"Denmark","name":"Hong's Kantine","insideFence":true},{"id":"716899294989006","latitude":55.672505605086,"longitude":12.567527303484,"city":"København","country":"Denmark","name":"Kondieret","insideFence":true},{"id":"594635317237227","latitude":55.672833108488,"longitude":12.568524201424,"city":"København","country":"Denmark","name":"Grease Musical","insideFence":true},{"id":"117021941776390","latitude":55.672436729711,"longitude":12.568668519813,"city":"København","country":"Denmark","name":"Radio Bilerne Tivoli:-*","insideFence":true},{"id":"589335681172640","latitude":55.673564668909,"longitude":12.567779053809,"city":"København","country":"Denmark","name":"The Voice 14 Tivoli København","insideFence":true},{"id":"125077161509968","latitude":55.6723225,"longitude":12.5691703,"city":"København","country":"Denmark","name":"Wagamama Kopenhagen","insideFence":true},{"id":"307467532710634","latitude":41.041903921454,"longitude":29.004316917417,"city":"Istanbul","country":"Turkey","name":"Flora Akvaryum","insideFence":false},{"id":"112143332131024","latitude":41.9667,"longitude":12.8,"city":"Tivoli","country":"Italy","name":"Tivoli, Italy","insideFence":false},{"id":"212176582221756","latitude":55.673347362565,"longitude":12.567532651552,"city":"København","country":"Denmark","name":"Woodhouse","insideFence":true},{"id":"141657505979198","latitude":55.673347713834,"longitude":12.570809284189,"city":"København","country":"Denmark","name":"Det Gyldne Tårn","insideFence":true},{"id":"246536105369375","latitude":47.845019,"longitude":25.915631,"city":"Radauti","country":"Romania","name":"Konditorei","insideFence":false},{"id":"1985312821751100","latitude":55.672317869152,"longitude":12.569082993619,"city":"Copenhagen","country":"Denmark","name":"Wagamama Köpenhamn","insideFence":true},{"id":"207394612635445","latitude":55.672104456168,"longitude":12.568035395702,"city":"København","country":"Denmark","name":"Bolchekogeriet","insideFence":true},{"id":"259686540884503","latitude":55.671958518266,"longitude":12.567987637606,"city":"København","country":"Denmark","name":"Ismejeriet","insideFence":true},{"id":"221599728356346","latitude":55.671997570612,"longitude":12.56883281064,"city":"Copenhagen","country":"Denmark","name":"Paafuglens Bistro","insideFence":true},{"id":"447503155360593","latitude":56.563813093854,"longitude":9.0301594850078,"city":"Skive","country":"Denmark","name":"Lagkagehuset Skive","insideFence":false},{"id":"155160024556997","latitude":56.136310061265,"longitude":12.947838987416,"city":"Åstorp","country":"Sweden","name":"Harmoni Hår och Hudvård","insideFence":false},{"id":"424703267594533","latitude":-29.936866714286,"longitude":30.989265714286,"city":"Durban","country":"South Africa","name":"Quality Street","insideFence":false},{"id":"176058705913291","latitude":55.67445284,"longitude":12.5687032,"city":"København","country":"Denmark","name":"Danseskolernes Dag","insideFence":true},{"id":"210673632295543","latitude":55.68021,"longitude":12.59027,"city":"Copenhagen","country":"Denmark","name":"NyhavnC","insideFence":true},{"id":"290111371759","latitude":55.68033,"longitude":12.58977,"city":"Copenhagen","country":"Denmark","name":"Hyttefadet","insideFence":true},{"id":"1963134357299938","latitude":55.67993,"longitude":12.59104,"city":"København","country":"Denmark","name":"Nyhavn","insideFence":true},{"id":"110310799019937","latitude":55.68016667,"longitude":12.58738889,"city":"Copenhagen","country":"Denmark","name":"Charlottenborg Palace","insideFence":true},{"id":"104956199540247","latitude":55.681452269711,"longitude":12.593609615028,"city":"Holmen","country":"Denmark","name":"Holmen, København, Denmark","insideFence":true},{"id":"180353568660784","latitude":55.681901715397,"longitude":12.593787797968,"city":"Copenhagen","country":"Denmark","name":"Copenhagen Admiral Hotel","insideFence":true},{"id":"93545747709","latitude":55.68082,"longitude":12.58797,"city":"København","country":"Denmark","name":"Barock - Nyhavn","insideFence":true},{"id":"665977516838465","latitude":55.68286,"longitude":12.58409,"city":"Copenhagen","country":"Denmark","name":"Wakeup Copenhagen, Borgergade","insideFence":true},{"id":"954797801278747","latitude":55.68233,"longitude":12.58638,"city":"København","country":"Denmark","name":"Restaurant Palægade","insideFence":true},{"id":"179204292108981","latitude":55.67973,"longitude":12.58452,"city":"Copenhagen","country":"Denmark","name":"Skindbuksen","insideFence":true},{"id":"166827773336684","latitude":55.68289,"longitude":12.59233,"city":"København","country":"Denmark","name":"Tromborg","insideFence":true},{"id":"123534407659669","latitude":55.67675,"longitude":12.58386,"city":"København","country":"Denmark","name":"Holmens Kirke","insideFence":true},{"id":"283539911849970","latitude":55.6819,"longitude":12.58548,"city":"København","country":"Denmark","name":"C.A","insideFence":true},{"id":"104911329581453","latitude":55.681404449443,"longitude":12.587708830833,"city":"Copenhagen","country":"Denmark","name":"KLASSIK Moderne Møbelkunst","insideFence":true},{"id":"139115136100906","latitude":55.681445322694,"longitude":12.585349645247,"city":"København","country":"Denmark","name":"N'AGE","insideFence":true},{"id":"141531689719","latitude":55.680653873952,"longitude":12.593747427772,"city":"København","country":"Denmark","name":"Dansk Sygeplejeråd","insideFence":true},{"id":"667724346709209","latitude":55.68165,"longitude":12.58563,"city":"København","country":"Denmark","name":"The Organic LAB.","insideFence":true},{"id":"137148296320984","latitude":55.68305,"longitude":12.59217,"city":"Copenhagen","country":"Denmark","name":"Baum und Pferdgarten","insideFence":true},{"id":"144234206189424","latitude":55.68112,"longitude":12.58409,"city":"Copenhagen","country":"Denmark","name":"Restaurant FRANK","insideFence":true},{"id":"366939412915","latitude":55.68068,"longitude":12.59381,"city":"København","country":"Denmark","name":"Din Sundhedsfaglige A-kasse","insideFence":true},{"id":"1667715140218569","latitude":55.68113,"longitude":12.58779,"city":"København","country":"Denmark","name":"Hartmanns","insideFence":true},{"id":"405730406489398","latitude":55.67858,"longitude":12.59073,"city":"Copenhagen","country":"Denmark","name":"Lashes & Permanent MakeUp CPH","insideFence":true},{"id":"380425262027966","latitude":55.68208,"longitude":12.58515,"city":"København","country":"Denmark","name":"C&C Travel","insideFence":true},{"id":"54249796589","latitude":55.68137,"longitude":12.58592,"city":"Copenhagen","country":"Denmark","name":"Day Birger et Mikkelsen","insideFence":true},{"id":"1353385061383196","latitude":55.6768,"longitude":12.58913,"city":"Copenhagen","country":"Denmark","name":"studido.com","insideFence":true},{"id":"306064959461205","latitude":55.67944,"longitude":12.5848,"city":"Copenhagen","country":"Denmark","name":"VITA copenhagen","insideFence":true},{"id":"263263500350788","latitude":55.682163684409,"longitude":12.592172025905,"city":"København","country":"Denmark","name":"Ernæring, Sundhed og Rådgivning​","insideFence":true},{"id":"670306036317089","latitude":55.67946,"longitude":12.59073,"city":"København","country":"Denmark","name":"Minskat Copenhagen","insideFence":true},{"id":"421155651385494","latitude":55.67845,"longitude":12.58879,"city":"Copenhagen","country":"Denmark","name":"LOT ONE STUDIO","insideFence":true},{"id":"1728215687423558","latitude":55.68272,"longitude":12.5924,"city":"Copenhagen","country":"Denmark","name":"Cobiro","insideFence":true},{"id":"326311667532471","latitude":55.67888,"longitude":12.59264,"city":"København","country":"Denmark","name":"Søfartens Ledere","insideFence":true},{"id":"654801374579876","latitude":55.678669,"longitude":12.5924196,"city":"København","country":"Denmark","name":"White Guide Danmark","insideFence":true},{"id":"378355068906156","latitude":55.68296,"longitude":12.58677,"city":"København","country":"Denmark","name":"Lundstroms","insideFence":true},{"id":"64175966145","latitude":55.68029,"longitude":12.59112,"city":"København","country":"Denmark","name":"ShopUSA","insideFence":true},{"id":"211347355565631","latitude":55.68106,"longitude":12.5888899,"city":"Copenhagen","country":"Denmark","name":"AIAYU","insideFence":true},{"id":"204066076319332","latitude":55.681247178902,"longitude":12.584055662155,"city":"Copenhagen","country":"Denmark","name":"THEBROWNPAPERBAG.NET","insideFence":true},{"id":"157768197573130","latitude":55.682010842438,"longitude":12.587475478649,"city":"København","country":"Denmark","name":"Yaneeda.com - oplevelsesrejser til indkøbspris","insideFence":true},{"id":"161535207215112","latitude":55.6819382,"longitude":12.5869503,"city":"København","country":"Denmark","name":"9MM Energy Drink Denmark","insideFence":true},{"id":"122249844465567","latitude":55.68113,"longitude":12.58483,"city":"København","country":"Denmark","name":"Stop Spild Af Mad","insideFence":true},{"id":"119118971467408","latitude":55.691111,"longitude":12.593889,"city":"Onesti","country":"Romania","name":"Kastellet, Copenhagen","insideFence":true},{"id":"106283142744224","latitude":55.684027777778,"longitude":12.593333333333,"city":"København","country":"Denmark","name":"Amalienborg","insideFence":true},{"id":"138325819525942","latitude":55.6892,"longitude":12.597,"city":"København","country":"Denmark","name":"St. Alban's Church, Copenhagen","insideFence":true},{"id":"138109506218309","latitude":55.692861,"longitude":12.599278,"city":"København","country":"Denmark","name":"The Little Mermaid (statue)","insideFence":true},{"id":"105791869461366","latitude":55.6889,"longitude":12.5875,"city":"København","country":"Denmark","name":"Nyboder","insideFence":true},{"id":"115326935150689","latitude":55.692222222222,"longitude":12.5875,"city":"Copenhagen","country":"Denmark","name":"Østerport station","insideFence":true},{"id":"110743322310406","latitude":55.689444444444,"longitude":12.5975,"city":"København","country":"Denmark","name":"Gefion Fountain","insideFence":true},{"id":"523503754341831","latitude":55.686609374122,"longitude":12.592892941831,"city":"København","country":"Denmark","name":"Designmuseum Danmark","insideFence":true},{"id":"143955788957813","latitude":55.68333333,"longitude":12.595,"city":"Copenhagen","country":"Denmark","name":"Amaliehaven","insideFence":true},{"id":"150134278363837","latitude":55.689659298877,"longitude":12.599633003622,"city":"Copenhagen","country":"Denmark","name":"Toldboden","insideFence":true},{"id":"115123358502887","latitude":55.6924,"longitude":12.5987,"city":"København","country":"Denmark","name":"Langelinie","insideFence":true},{"id":"215480991840628","latitude":55.687598094074,"longitude":12.597700609792,"city":"Copenhagen","country":"Denmark","name":"Maersk Line","insideFence":true},{"id":"190638967645704","latitude":55.687947456857,"longitude":12.597144649947,"city":"Copenhagen","country":"Denmark","name":"Maersk Group","insideFence":true},{"id":"174114066004900","latitude":55.68733,"longitude":12.59144,"city":"København","country":"Denmark","name":"Bistro Boheme","insideFence":true},{"id":"108031669273256","latitude":55.695680165157,"longitude":12.608850002289,"city":"København","country":"Denmark","name":"Halvandet","insideFence":false},{"id":"1567951633438312","latitude":55.6879,"longitude":12.59023,"city":"Copenhagen","country":"Denmark","name":"Lars Jon - Florist","insideFence":true},{"id":"1413306368990545","latitude":55.6941551,"longitude":12.5980899,"name":"Jamestown","insideFence":true},{"id":"162441487244358","latitude":55.68926,"longitude":12.59045,"city":"Copenhagen","country":"Denmark","name":"Mystery Makers","insideFence":true},{"id":"447765058909705","latitude":55.6864,"longitude":12.5893,"city":"Copenhagen","country":"Denmark","name":"THE VIETNAMESE","insideFence":true},{"id":"528570447338742","latitude":55.6832952,"longitude":12.5844377,"city":"Copenhagen","country":"Denmark","name":"Sticks'n'Sushi","insideFence":true},{"id":"109160732436041","latitude":55.6862,"longitude":12.6066,"city":"Copenhagen","country":"Denmark","name":"Royal Danish Naval Academy","insideFence":true},{"id":"132720323435191","latitude":55.681944444444,"longitude":12.600555555556,"city":"København","country":"Denmark","name":"Copenhagen Opera House","insideFence":false},{"id":"635450906583108","latitude":55.69177,"longitude":12.58688,"city":"Copenhagen","country":"Denmark","name":"Hotel Østerport","insideFence":true},{"id":"297422283612612","latitude":55.687642227806,"longitude":12.597084902331,"city":"København","country":"Denmark","name":"Maersk Oil","insideFence":true},{"id":"238109072966783","latitude":55.68505,"longitude":12.58925,"city":"København","country":"Denmark","name":"Frederiks Kirke - Marmorkirken","insideFence":true},{"id":"258708349159","latitude":55.692877443891,"longitude":12.589854598045,"city":"København","country":"Denmark","name":"Nyhavn Rejser","insideFence":true},{"id":"155113957979598","latitude":55.691388888889,"longitude":12.587083333333,"city":"Copenhagen","country":"Denmark","name":"Den Frie Udstilling","insideFence":true},{"id":"160139617417040","latitude":55.68809,"longitude":12.5977,"city":"Copenhagen","country":"Denmark","name":"Maersk Supply Service","insideFence":true},{"id":"332636423443566","latitude":55.687480052157,"longitude":12.592906951904,"city":"Copenhagen","country":"Denmark","name":"Montana Furniture","insideFence":true},{"id":"341305162690734","latitude":55.697119240608,"longitude":12.583379745483,"city":"København","country":"Denmark","name":"Iron & Ink Copenhagen","insideFence":false},{"id":"166594410054385","latitude":55.68751,"longitude":12.58505,"city":"København","country":"Denmark","name":"Restaurant Kokkeriet","insideFence":true},{"id":"298461170736","latitude":55.694421594675,"longitude":12.582855957202,"city":"Copenhagen","country":"Denmark","name":"U.S. Embassy Denmark","insideFence":true},{"id":"129282707087122","latitude":55.68479,"longitude":12.59503,"city":"Kaunas Petrasiunas","country":"Lithuania","name":"Luxuskirurgi - Europæisk center for helse, wellness & skønhed","insideFence":true},{"id":"995841380473704","latitude":55.68333,"longitude":12.58776,"city":"København","country":"Denmark","name":"CeriX","insideFence":true},{"id":"188180217907121","latitude":55.69667,"longitude":12.59472,"city":"København","country":"Denmark","name":"LogBuy Danmark","insideFence":true},{"id":"336489353032872","latitude":55.68363,"longitude":12.58989,"city":"Copenhagen","country":"Denmark","name":"Sustainia","insideFence":true},{"id":"123807228233424","latitude":55.6866,"longitude":12.59126,"city":"København","country":"Denmark","name":"Mansa - Familiesammenføring","insideFence":true},{"id":"101548173806241","latitude":55.693721002497,"longitude":12.608292102814,"city":"Copenhagen","country":"Denmark","name":"Naturs Vinbar","insideFence":false},{"id":"329356990851529","latitude":55.68639,"longitude":12.58405,"city":"Copenhagen","country":"Denmark","name":"Checkmate ApS","insideFence":true},{"id":"1522284991160283","latitude":55.682181719564,"longitude":12.600030899048,"city":"Copenhagen","country":"Denmark","name":"One And Only Musical Teater","insideFence":false},{"id":"1405288036402555","latitude":55.69362,"longitude":12.58722,"city":"København","country":"Denmark","name":"GoKarakter","insideFence":true},{"id":"334763920021426","latitude":52.49438,"longitude":13.39878,"city":"Berlin","country":"Germany","name":"The Cloakroom","insideFence":false},{"id":"313928288721940","latitude":55.686938760004,"longitude":12.58608341217,"city":"Copenhagen","country":"Denmark","name":"FRAMA","insideFence":true},{"id":"1533673140220199","latitude":28.423108557931,"longitude":77.094841003418,"city":"Copenhagen","country":"Denmark","name":"CodersTrust","insideFence":false},{"id":"1534782070134005","latitude":55.6852,"longitude":12.58329,"city":"Copenhagen","country":"Denmark","name":"Bodil Jørgensen Skuespiller","insideFence":true},{"id":"665671633473114","latitude":55.68603,"longitude":12.58738,"city":"København","country":"Denmark","name":"Inbody Danmark","insideFence":true},{"id":"430906253604395","latitude":55.68457,"longitude":12.58926,"city":"Copenhagen","country":"Denmark","name":"Rplparfums","insideFence":true},{"id":"294180263931252","latitude":55.6834,"longitude":12.58754,"city":"Copenhagen","country":"Denmark","name":"Luelle","insideFence":true},{"id":"146001445410373","latitude":55.68461,"longitude":12.58256,"city":"Copenhagen","country":"Denmark","name":"NetDania","insideFence":true},{"id":"124280647588099","latitude":55.686882020248,"longitude":12.573199937602,"city":"København","country":"Denmark","name":"Botanisk Have, København","insideFence":true},{"id":"105989152765340","latitude":55.688888888889,"longitude":12.566944444444,"city":"Copenhagen","country":"Denmark","name":"The Lakes, Copenhagen","insideFence":true},{"id":"183538365005897","latitude":55.684328492385,"longitude":12.57970550895,"city":"Copenhagen","country":"Denmark","name":"Kongens Have, Restaurant","insideFence":true},{"id":"128700897207990","latitude":55.68421,"longitude":12.57446,"city":"København","country":"Denmark","name":"Europa-Parlamentet i Danmark","insideFence":true},{"id":"441410779213564","latitude":55.69039,"longitude":12.57135,"city":"København","country":"Denmark","name":"Lo Maalue","insideFence":true},{"id":"318522098214555","latitude":55.68381484381,"longitude":12.574110031128,"city":"København","country":"Denmark","name":"Mai Copenhagen","insideFence":true},{"id":"107331721164","latitude":55.68474,"longitude":12.5724,"city":"København","country":"Denmark","name":"Djøf Studerende","insideFence":true},{"id":"188137691214001","latitude":55.69073,"longitude":12.57815,"city":"København","country":"Denmark","name":"Dansk Psykolog Forening","insideFence":true},{"id":"899756280046426","latitude":55.6944084,"longitude":12.5774298,"city":"Copenhagen","country":"Denmark","name":"BørnefestiBAL","insideFence":true},{"id":"1935854843401517","latitude":55.6917112,"longitude":12.5985682,"city":"Copenhagen","country":"Denmark","name":"Den Lille Havfrue","insideFence":true},{"id":"187787851300202","latitude":55.691765848042,"longitude":12.598300554572,"city":"København","country":"Denmark","name":"Michael Laudrup, Langelinie Pavilionen","insideFence":true},{"id":"1158953924197117","latitude":55.76211,"longitude":12.59975,"city":"Charlottenlund","country":"Denmark","name":"Il Gabbiano Skovshoved Havn","insideFence":false},{"id":"254185127991782","latitude":55.691070933745,"longitude":12.598983522643,"city":"København","country":"Denmark","name":"Copenhagen Sakura Festival","insideFence":true},{"id":"450120838355376","latitude":55.69222133017,"longitude":12.598593235016,"city":"København","country":"Denmark","name":"Madkastellet","insideFence":true},{"id":"104083306294368","latitude":33.8667,"longitude":73.7667,"city":"Rawala Kot","country":"Pakistan","name":"Rawalakot","insideFence":false},{"id":"199222350196367","latitude":55.690676104329,"longitude":12.599506527197,"city":"København","country":"Denmark","name":"Langalinie Park","insideFence":true},{"id":"1898194277116087","latitude":55.69029,"longitude":12.59962,"city":"København","country":"Denmark","name":"Løgismose","insideFence":true},{"id":"222137381500053","latitude":55.68991,"longitude":12.5953,"city":"Copenhagen","country":"Denmark","name":"Kastelsmøllen","insideFence":true},{"id":"129614545970","latitude":55.691362620921,"longitude":12.598292827606,"city":"København","country":"Denmark","name":"Humanic Group","insideFence":true},{"id":"222896997821810","latitude":55.67657,"longitude":12.56179,"city":"København","country":"Denmark","name":"ProfilHotels I Mercur","insideFence":true},{"id":"138605009502100","latitude":55.6755,"longitude":12.5611,"city":"København","country":"Denmark","name":"Imperial Theater, Copenhagen","insideFence":true},{"id":"178048215562837","latitude":55.675271093885,"longitude":12.561137254544,"name":"Nordisk Film Biografer","insideFence":true},{"id":"353460158066250","latitude":55.675722283888,"longitude":12.560996692475,"city":"København","country":"Denmark","name":"Nyhayn","insideFence":true},{"id":"211360122210981","latitude":55.685,"longitude":12.57527778,"city":"Copenhagen","country":"Denmark","name":"Rosenborg Barracks","insideFence":true},{"id":"1456456414617953","latitude":55.67633,"longitude":12.56179,"city":"København","country":"Denmark","name":"Moment Staff","insideFence":true},{"id":"466612783359057","latitude":55.675714593676,"longitude":12.561526429726,"name":"Imperial Hotel, Copenhagen","insideFence":true},{"id":"110223219030432","latitude":55.66713,"longitude":12.55506,"city":"København","country":"Denmark","name":"Vesterbro, Copenhagen","insideFence":false},{"id":"154938907907185","latitude":55.676676983725,"longitude":12.561664581299,"city":"København","country":"Denmark","name":"FranklinCovey Danmark","insideFence":true},{"id":"290677110953117","latitude":55.67669760441,"longitude":12.562804436323,"city":"København","country":"Denmark","name":"Palads Bio 3","insideFence":true},{"id":"503562339700983","latitude":55.675494609062,"longitude":12.562694484402,"city":"København","country":"Denmark","name":"Emmerys","insideFence":true},{"id":"106335472889123","latitude":55.67633,"longitude":12.56179,"city":"København","country":"Denmark","name":"Moment Students","insideFence":true},{"id":"315957071800481","latitude":55.676389,"longitude":12.5625,"city":"København","country":"Denmark","name":"Vesterport Station","insideFence":true},{"id":"102595179793817","latitude":55.6296,"longitude":12.6494,"city":"Copenhagen","country":"Denmark","name":"Copenhagen Airport, Kastrup Station","insideFence":false},{"id":"1150573831661414","latitude":55.676670075096,"longitude":12.561757941999,"city":"Copenhagen","country":"Denmark","name":"Spies Centre Court","insideFence":true},{"id":"139355516099712","latitude":55.6667,"longitude":12.5833,"city":"København","country":"Denmark","name":"TEDxCopenhagen","insideFence":false},{"id":"447830858566209","latitude":55.67514,"longitude":12.55942,"city":"Copenhagen","country":"Denmark","name":"Scandic Copenhagen","insideFence":false},{"id":"1450493538312621","latitude":55.676253510419,"longitude":12.559947967529,"city":"Copenhagen","country":"Denmark","name":"Steel House Copenhagen","insideFence":true},{"id":"1088240577973940","latitude":55.675217599624,"longitude":12.561244449071,"city":"Copenhagen","country":"Denmark","name":"Nordisk Film Biografer Imperial","insideFence":true},{"id":"127687094522423","latitude":55.675284181081,"longitude":12.561945721404,"city":"Copenhagen","country":"Denmark","name":"Espresso House","insideFence":true},{"id":"300379736714910","latitude":55.6766992,"longitude":12.5611616,"city":"København","country":"Denmark","name":"Jobcenter København","insideFence":true},{"id":"331791283520470","latitude":55.67565,"longitude":12.56411,"city":"Copenhagen","country":"Denmark","name":"Tuben","insideFence":true},{"id":"256058091099234","latitude":55.675267095477,"longitude":12.562016658619,"city":"København","country":"Denmark","name":"Baresso Ved Vesterport","insideFence":true},{"id":"207438062668278","latitude":55.67751,"longitude":12.56052,"city":"København","country":"Denmark","name":"NaturErhvervstyrelsen","insideFence":true},{"id":"219428598067987","latitude":55.67669,"longitude":12.59637,"city":"København","country":"Denmark","name":"Direktoratet for Kriminalforsorgen","insideFence":false},{"id":"124470041012542","latitude":55.67565,"longitude":12.56411,"city":"København","country":"Denmark","name":"XO Burgers and Steaks","insideFence":true},{"id":"476004522500686","latitude":51.97713,"longitude":20.5274,"city":"Mszczonów","country":"Poland","name":"Ristorante Appetito","insideFence":false},{"id":"116565585081309","latitude":55.675301235083,"longitude":12.563393234791,"city":"København","country":"Denmark","name":"fitness dk Royal","insideFence":true},{"id":"138550166205335","latitude":55.685409290605,"longitude":12.498942491245,"city":"Brønshøj","country":"Denmark","name":"S-toget","insideFence":false},{"id":"113769725303253","latitude":43.8833,"longitude":8.05,"city":"Imperia","country":"Italy","name":"Imperia","insideFence":false},{"id":"181652475191269","latitude":55.488300006638,"longitude":12.162328587116,"city":"Køge","country":"Denmark","name":"Køge Transportcenter","insideFence":false},{"id":"135413496514243","latitude":55.70263889605,"longitude":12.572239549441,"city":"København","country":"Denmark","name":"Telia Parken","insideFence":false},{"id":"492564190831344","latitude":55.67657,"longitude":12.56179,"city":"København","country":"Denmark","name":"Restaurant Mercur","insideFence":true},{"id":"245836728798643","latitude":55.672732,"longitude":12.564744,"city":"København","country":"Denmark","name":"McDonald's Hovedbanegården","insideFence":false},{"id":"162114267168057","latitude":55.67631,"longitude":12.56446,"city":"København","country":"Denmark","name":"Jensens Bøfhus Axeltorv","insideFence":true},{"id":"1023878721044051","latitude":55.70762,"longitude":12.55135,"city":"Copenhagen","country":"Denmark","name":"Astep","insideFence":false},{"id":"358221681229095","latitude":55.676362403992,"longitude":12.56441116333,"city":"København","country":"Denmark","name":"ba'sta'ds","insideFence":true},{"id":"246641122208273","latitude":55.6761,"longitude":12.5683,"city":"København","country":"Denmark","name":"First Class Events","insideFence":true},{"id":"1669057253410202","latitude":55.67801,"longitude":12.56228,"city":"København","country":"Denmark","name":"Urban Gym","insideFence":true},{"id":"597678480384097","latitude":55.67645,"longitude":12.5643499,"city":"København","country":"Denmark","name":"Bistro Avenue","insideFence":true},{"id":"337713109603083","latitude":55.67565,"longitude":12.56411,"city":"København","country":"Denmark","name":"Cafe Emma","insideFence":true}]